[
  {
    "state": "Rio Grande do Sul",
    "city": "Santa Rosa",
    "name": "Hemosar",
    "address": "Rua Boa Vista, 401",
    "neighborhood": "Centro",
    "zipcode": "98900-000",
    "phone": "(55)35126122",
    "lat": -27.8684566,
    "lng": -54.4861736
  },
  {
    "state": "Rio Grande do Sul",
    "city": "Porto Alegre",
    "name": "Hospital Conceição",
    "address": "Av Francisco Trein, 596",
    "neighborhood": "Passo D'areia",
    "zipcode": "91350-200",
    "phone": "(51)33574234",
    "lat": -30.0162194,
    "lng": -51.15908
  },
  {
    "state": "Rio Grande do Sul",
    "city": "Porto Alegre",
    "name": "Hospital De Clínicas De Porto Alegre",
    "address": "R Ramiro Barcelos, 2350 2º Andar",
    "neighborhood": "Santana",
    "zipcode": "90035-007",
    "phone": "(51)33598309,(51)33598020,(51)33598308",
    "lat": -30.039951,
    "lng": -51.2082828
  },
  {
    "state": "Rio Grande do Sul",
    "city": "Alegrete",
    "name": "Hemocentro Regional De Alegrete",
    "address": "R Gen Sampaio, 10",
    "neighborhood": "Vila Nova",
    "zipcode": "97541-260",
    "phone": "(55)34264127",
    "lat": -29.7880963,
    "lng": -55.795094
  },
  {
    "state": "Rio Grande do Sul",
    "city": "Caxias do Sul",
    "name": "Hemocentro Regional De Caxias Do Sul",
    "address": "R Ernesto Alves, 2260",
    "neighborhood": "Nossa Senhora De Lourdes",
    "zipcode": "95020-360",
    "phone": "(54)32904576,(54)32904577",
    "lat": -29.1640035,
    "lng": -51.1852882
  },
  {
    "state": "Rio Grande do Sul",
    "city": "Cruz Alta",
    "name": "Hemocentro Regional De Cruz Alta",
    "address": "R Br Do Rio Branco, 1445 Fundos",
    "neighborhood": "Centro",
    "zipcode": "98010-770",
    "phone": "(55)33263168,(55)33263478",
    "lat": -28.6420362,
    "lng": -53.6080518
  },
  {
    "state": "Rio Grande do Sul",
    "city": "Palmeira Das Missoes",
    "name": "Hemocentro Regional De Palmeira Das Missoes",
    "address": "Rua Nassib Nassif, 503",
    "neighborhood": "Loteamento Céu Azul",
    "zipcode": "98300-000",
    "phone": "(55)37425676",
    "lat": -27.9001784,
    "lng": -53.3140353
  },
  {
    "state": "Rio Grande do Sul",
    "city": "Santa Maria",
    "name": "Hemocentro Regional De Santa Maria",
    "address": "Al Santiago Do Chile, 35",
    "neighborhood": "Nossa Senhora De Lourdes",
    "zipcode": "97050-685",
    "phone": "(55)99164219,(55)91316991,(55)32215262",
    "lat": -29.6926706,
    "lng": -53.7944018
  },
  {
    "state": "Rio Grande do Sul",
    "city": "Passo Fundo",
    "name": "Hemopasso Hemocentro Regional De Passo Fundo",
    "address": "Av Sete De Setembro, 1055 Bloco A",
    "neighborhood": "Centro",
    "zipcode": "99010-120",
    "phone": "(54)33115555,(54)33111427",
    "lat": -28.2541176,
    "lng": -52.420188
  },
  {
    "state": "Rio Grande do Sul",
    "city": "Pelotas",
    "name": "Hemopel",
    "address": "Av Bento Goncalves, 4569",
    "neighborhood": "Centro",
    "zipcode": "96015-145",
    "phone": "(53)32254022,(53)32223002",
    "lat": -31.7581563,
    "lng": -52.3489107
  },
  {
    "state": "Rio Grande do Sul",
    "city": "Porto Alegre",
    "name": "Hemorgs",
    "address": "Av Bento Goncalves, 3722",
    "neighborhood": "Partenon",
    "zipcode": "90650-001",
    "phone": "(51)33366755",
    "lat": -30.0632495,
    "lng": -51.1787812
  },
  {
    "state": "Acre",
    "city": "Rio Branco",
    "name": "Hemoacre",
    "address": "Av. Getúlio Vargas, 2787",
    "neighborhood": "Vila Ivonete",
    "zipcode": "69914-500",
    "phone": "(68)32481377",
    "lat": -9.9537615,
    "lng": -67.8188671
  },
  {
    "state": "Amapá",
    "city": "Macapá",
    "name": "Hemoap",
    "address": "Av Fab, 0",
    "neighborhood": "Central",
    "zipcode": "68900-073",
    "phone": "(96)32126139",
    "lat": 0.0400864,
    "lng": -51.0498131
  },
  {
    "state": "Amazonas",
    "city": "Manaus",
    "name": "Fhemoam",
    "address": "Av Constantino Nery, 4397",
    "neighborhood": "Chapada",
    "zipcode": "69050-000",
    "phone": "(92)36550167,(92)36565180",
    "lat": -3.0859786,
    "lng": -60.0266938
  },
  {
    "state": "Pará",
    "city": "Belém",
    "name": "Fundação Hemopa",
    "address": "Travessa Padre Eutiquio, 2109",
    "neighborhood": "Batista Campos",
    "zipcode": "66033-000",
    "phone": "(91)32429100 Ramal:241,(91)32429100 Ramal:239,(91)32235933",
    "lat": -1.4630392,
    "lng": -48.487432
  },
  {
    "state": "Rondônia",
    "city": "Porto Velho",
    "name": "Fhemeron",
    "address": "R Benedito De S Brito, 0",
    "neighborhood": "Industrial",
    "zipcode": "76821-080",
    "phone": "(69)32165485,(69)32165487,(69)32162204",
    "lat": -8.7376896,
    "lng": -63.8907149
  },
  {
    "state": "Rondônia",
    "city": "Ji-Paraná",
    "name": "Uct De Ji Paraná",
    "address": "R Vilagran Cabrita, 1440",
    "neighborhood": "Centro",
    "zipcode": "76900-044",
    "phone": "(69)34226762,(69)34211615",
    "lat": -10.8781412,
    "lng": -61.9326728
  },
  {
    "state": "Roraima",
    "city": "Boa Vista",
    "name": "Hemocentro De Roraima",
    "address": "Av Brg Eduardo Gomes, 3418",
    "neighborhood": "Aeroporto",
    "zipcode": "69304-015",
    "phone": "(95)21210883,(95)21210859",
    "lat": 2.8315263,
    "lng": -60.6896838
  },
  {
    "state": "Tocantins",
    "city": "Augustinópolis",
    "name": "Unidade De Coleta De Transfusão Augustinópolis",
    "address": "Rua Amicuns, 200",
    "neighborhood": "Setor Central",
    "zipcode": "77960-000",
    "phone": "(63)34561153",
    "lat": -5.4655082,
    "lng": -47.8814471
  },
  {
    "state": "Tocantins",
    "city": "Palmas",
    "name": "Hemocentro Coordenador De Palmas",
    "address": "301 Norte, Av. Ns 01, Conj. 02 Lote 01, 0",
    "neighborhood": "Plano Diretor Norte",
    "zipcode": "77015-200",
    "phone": "(63)32183287",
    "lat": -10.1711902,
    "lng": -48.3346931
  },
  {
    "state": "Tocantins",
    "city": "Araguaína",
    "name": "Hemocentro Regional De Araguaína",
    "address": "R Treze De Maio, 1336",
    "neighborhood": "Setor Central",
    "zipcode": "77803-130",
    "phone": "(63)34112917,(63)34152900,(63)34138100",
    "lat": -7.1931538,
    "lng": -48.2098721
  },
  {
    "state": "Tocantins",
    "city": "Garupi",
    "name": "Núcleo De Hemoterapia De Gurupi",
    "address": "R Quatorze De Novembro, 0 Qd: 117 Lote:18",
    "neighborhood": "Setor Central",
    "zipcode": "77405-070",
    "phone": "(63)32122237",
    "lat": -11.7293155,
    "lng": -49.0612066
  },
  {
    "state": "Alagoas",
    "city": "Maceió",
    "name": "Hemocentro De Alagoas – Hemoal",
    "address": "Av. Jorge De Lima, 58",
    "neighborhood": "Trapiche",
    "zipcode": "57010-300",
    "phone": "(82)33152107",
    "lat": -9.672467,
    "lng": -35.7582896
  },
  {
    "state": "Bahia",
    "city": "Salvador",
    "name": "Hemoba",
    "address": "Ld Do Hospital Geral, 0 2º Andar",
    "neighborhood": "Brotas",
    "zipcode": "40286-240",
    "phone": "(71)31165600",
    "lat": -12.9976148,
    "lng": -38.4922132
  },
  {
    "state": "Ceará",
    "city": "Fortaleza",
    "name": "Hemoce",
    "address": "R Raimundo Facanha, 3390",
    "neighborhood": "Rodolfo Teofilo",
    "zipcode": "60431-000",
    "phone": "(85)31012296 Ramal:211",
    "lat": -3.7381332,
    "lng": -38.545462
  },
  {
    "state": "Maranhão",
    "city": "São Luís",
    "name": "Centro De Hematologia E Hemoterapia Do Maranhão",
    "address": "R Cinco De Janeiro, 0",
    "neighborhood": "Jordoa",
    "zipcode": "65040-450",
    "phone": "(98)32161156,(98)32161137,(98)32161134",
    "lat": -2.5448137,
    "lng": -44.2655918
  },
  {
    "state": "Paraíba",
    "city": "João Pessoa",
    "name": "Hemocentro Coordenador Paraíba",
    "address": "Av D Pedro Ii, 1119",
    "neighborhood": "Centro",
    "zipcode": "58013-420",
    "phone": "(83)32185690",
    "lat": -7.1254229,
    "lng": -34.8739316
  },
  {
    "state": "Pernambuco",
    "city": "Recife",
    "name": "Fundação De Hematologia E Hemoterapia De Pernambuco",
    "address": "Rua Joaquim Nabuco, 171",
    "neighborhood": "Graças",
    "zipcode": "52011-100",
    "phone": "(81)31824600,(81)31824648,(81)31824653",
    "lat": -8.052668,
    "lng": -34.8979476
  },
  {
    "state": "Pernambuco",
    "city": "Caruaru",
    "name": "Hemocentro Regional Caruaru",
    "address": "Av Oswaldo Cruz, 0",
    "neighborhood": "Mauricio De Nassau",
    "zipcode": "55012-040",
    "phone": "(81)37199565,(81)37199570",
    "lat": -8.2809201,
    "lng": -35.9726322
  },
  {
    "state": "Pernambuco",
    "city": "Garanhuns",
    "name": "Hemocentro Regional De Garanhuns",
    "address": "Av Goncalves Maia, 0",
    "neighborhood": "Heliopolis",
    "zipcode": "55296-270",
    "phone": "(87)37618520,(87)37618530",
    "lat": -8.885081,
    "lng": -36.4815707
  },
  {
    "state": "Pernambuco",
    "city": "Arcoverde",
    "name": "Núcelo De Hemoterapia Regional Arcoverde",
    "address": "Av Joaquim Nabuco, 0",
    "neighborhood": "Centro",
    "zipcode": "56506-470",
    "phone": "(87)31821462",
    "lat": -8.4176126,
    "lng": -37.0584723
  },
  {
    "state": "Pernambuco",
    "city": "Ouricuri",
    "name": "Núcleo De Hemoterapia Regional Ouricuri",
    "address": "Rua Ulisses Guimarães, 0",
    "neighborhood": "Centro",
    "zipcode": "56200-970",
    "phone": "(87)31821086",
    "lat": -7.8812795,
    "lng": -40.0840237
  },
  {
    "state": "Pernambuco",
    "city": "Petrolina",
    "name": "Núcleo De Hemoterapia Regional Petrolina",
    "address": "R Pacifico Da Luz, 0",
    "neighborhood": "Centro",
    "zipcode": "56304-010",
    "phone": "(87)31825866",
    "lat": -9.3985164,
    "lng": -40.5009372
  },
  {
    "state": "Pernambuco",
    "city": "Salgueiro",
    "name": "Núcleo De Hemoterapia Regional Salgueiro",
    "address": "Rua Joaquim Gondim, 65",
    "neighborhood": "Centro",
    "zipcode": "56000-970",
    "phone": "(87)31820804,(87)31820343",
    "lat": -8.0725066,
    "lng": -39.1268089
  },
  {
    "state": "Pernambuco",
    "city": "Serra Talhada",
    "name": "Núcleo De Hemoterapia Regional Serra Talhada",
    "address": "R Joaquim Godoy, 0",
    "neighborhood": "Nossa Senhora Da Penha",
    "zipcode": "56912-450",
    "phone": "(87)38319323,(87)38319330,(87)38319328",
    "lat": -7.9890534,
    "lng": -38.2959533
  },
  {
    "state": "Piauí",
    "city": "Teresina",
    "name": "Hemopi",
    "address": "Rua 1º De Maio, 235",
    "neighborhood": "Centro/sul",
    "zipcode": "64001-430",
    "phone": "(86)32218319,(86)32218320",
    "lat": -25.7280799,
    "lng": -53.0592741
  },
  {
    "state": "Rio Grande do Norte",
    "city": "Natal",
    "name": "Hemonorte",
    "address": "Av Alm Alexandrino De Alencar, 1800",
    "neighborhood": "Tirol",
    "zipcode": "59015-350",
    "phone": "(84)99129432,(84)32326724,(84)32326703",
    "lat": -5.8049797,
    "lng": -35.2085223
  },
  {
    "state": "Rio Grande do Norte",
    "city": "Natal",
    "name": "Hemovida",
    "address": "Av Nilo Pecanha, 199",
    "neighborhood": "Petropolis",
    "zipcode": "59012-300",
    "phone": "(84)32024289,(84)32025366,(84)99049200",
    "lat": -5.7814604,
    "lng": -35.1970392
  },
  {
    "state": "Sergipe",
    "city": "Aracaju",
    "name": "Hemose",
    "address": "Av Pres Tancredo Neves, 0 C. Adm. Gov Augusto",
    "neighborhood": "Capucho",
    "zipcode": "49080-470",
    "phone": "(79)32258039,(79)32258000,(79)32593195",
    "lat": -10.9256341,
    "lng": -37.0804655
  },
  {
    "state": "Distrito Federal",
    "city": "Brasilia",
    "name": "Fundação Hemocentro De Brasília",
    "address": "Smhn, 03 Qd.03 Conj.a Bloco03",
    "neighborhood": "Asa Norte",
    "zipcode": "70710-908",
    "phone": "(61)93503075,(61)33274413,(61)33274464",
    "lat": -15.7856713,
    "lng": -47.8828645
  },
  {
    "state": "Goiás",
    "city": "Goiânia",
    "name": "Hemocentro De Goiás",
    "address": "Av Anhanguera, 5195",
    "neighborhood": "Setor Coimbra",
    "zipcode": "74535-010",
    "phone": "(62)32014587,(62)32014584,(62)32014574",
    "lat": -16.6753041,
    "lng": -49.2593239
  },
  {
    "state": "Mato Grosso",
    "city": "Cuiabá",
    "name": "Mt Hemocentro",
    "address": "R Treze De Junho, 1055",
    "neighborhood": "Porto",
    "zipcode": "78025-000",
    "phone": "(65)33210351,(65)36230044",
    "lat": -15.6054899,
    "lng": -56.1015682
  },
  {
    "state": "Mato Grosso do Sul",
    "city": "Campo Grande",
    "name": "Hemosul",
    "address": "Av Fernando C Da Costa, 1304",
    "neighborhood": "Centro",
    "zipcode": "79004-310",
    "phone": "(67)33121500,(67)33121539",
    "lat": -20.4684173,
    "lng": -54.6090172
  },
  {
    "state": "Espírito Santo",
    "city": "Vitória",
    "name": "Hemoes",
    "address": "Av Mal Campos, 1468",
    "neighborhood": "Maruípe",
    "zipcode": "29045-460",
    "phone": "(27)36367925,(27)36367920",
    "lat": -20.2979169,
    "lng": -40.3169339
  },
  {
    "state": "Minas Gerais",
    "city": "Patos de Minas",
    "name": "Núcleo Regional De Patos De Minas",
    "address": "R Maj Gote, 1255",
    "neighborhood": "Centro",
    "zipcode": "38700-001",
    "phone": "(34)38229646",
    "lat": -18.5941011,
    "lng": -46.5149362
  },
  {
    "state": "Minas Gerais",
    "city": "Ponte Nova",
    "name": "Nucleo Regional De Ponte Nova",
    "address": "R Carlos Gomes, 17",
    "neighborhood": "Esplanada",
    "zipcode": "35430-069",
    "phone": "(31)38173212",
    "lat": -20.4186282,
    "lng": -42.9131912
  },
  {
    "state": "Minas Gerais",
    "city": "Pouso Alegre",
    "name": "Nucleo Regional De Pouso Alegre",
    "address": "R Comendador José Garcia, 825",
    "neighborhood": "Centro",
    "zipcode": "37550-000",
    "phone": "(35)34499900",
    "lat": -22.2261348,
    "lng": -45.9295297
  },
  {
    "state": "Minas Gerais",
    "city": "São João Del Rei",
    "name": "Nucleo Regional De São João Del Rei",
    "address": "R Pref Nascimento Teixeira, 175",
    "neighborhood": "Segredo",
    "zipcode": "36307-404",
    "phone": "(32)33713389",
    "lat": -21.1388677,
    "lng": -44.25582
  },
  {
    "state": "Minas Gerais",
    "city": "Sete Lagoas",
    "name": "Nucleo Regional De Sete Lagoas",
    "address": "Av Renato Azeredo, 3170",
    "neighborhood": "Canaã",
    "zipcode": "35700-312",
    "phone": "(31)37745074",
    "lat": -19.4624525,
    "lng": -44.2294823
  },
  {
    "state": "Minas Gerais",
    "city": "Betim",
    "name": "Posto De Coleta De Betim Hemominas",
    "address": "Rua Salvador Gonçalves Diniz, 191",
    "neighborhood": "Baixada",
    "zipcode": "36900-000",
    "phone": "(31)35951010",
    "lat": -19.9673078,
    "lng": -44.2011904
  },
  {
    "state": "Minas Gerais",
    "city": "Além Paraíba",
    "name": "Unidade De Coleta E Transfusão De Além Paraíba Hemominas",
    "address": "Rua Felizardo Esquerdo, 45",
    "neighborhood": "Ilha Recreio",
    "zipcode": "36660-000",
    "phone": "(32)34624597",
    "lat": -21.8833835,
    "lng": -42.6985095
  },
  {
    "state": "Minas Gerais",
    "city": "Belo Horizonte",
    "name": "Unidade De Coleta E Transfusão Hjk",
    "address": "R Dr Cristiano Rezende, 2505",
    "neighborhood": "Flavio Marques Lisboa",
    "zipcode": "30620-470",
    "phone": "(31)33908014",
    "lat": -19.9892591,
    "lng": -43.9966115
  },
  {
    "state": "Minas Gerais",
    "city": "Belo Horizonte",
    "name": "Fundação Hemominas – Administração Central",
    "address": "R Gr Para, 822",
    "neighborhood": "Funcionários",
    "zipcode": "30150-341",
    "phone": "(31)37684519,(31)37687499,(31)37684573",
    "lat": -19.929638,
    "lng": -43.9233597
  },
  {
    "state": "Minas Gerais",
    "city": "Belo Horizonte",
    "name": "Fundação Hemominas De Belo Horizonte",
    "address": "Al Ezequiel Dias, 321",
    "neighborhood": "Centro",
    "zipcode": "30130-110",
    "phone": "(31)37684573,(31)37684603,(31)37684519",
    "lat": -19.9248522,
    "lng": -43.9319432
  },
  {
    "state": "Minas Gerais",
    "city": "Juiz de Fora",
    "name": "Hemocentro Regional De Juiz De Fora",
    "address": "R Br De Cataguases, 0",
    "neighborhood": "Santa Helena",
    "zipcode": "36015-370",
    "phone": "(32)32573100",
    "lat": -21.7533412,
    "lng": -43.3511177
  },
  {
    "state": "Minas Gerais",
    "city": "Montes Claros",
    "name": "Hemocentro Regional De Montes Claros",
    "address": "Rua Urbino Viana, 640",
    "neighborhood": "Vila Guilermina",
    "zipcode": "36900-000",
    "phone": "(38)32187810",
    "lat": -16.7318827,
    "lng": -43.871102
  },
  {
    "state": "Minas Gerais",
    "city": "Uberaba",
    "name": "Hemocentro Regional De Uberaba",
    "address": "Av Getulio Guarita, 250",
    "neighborhood": "Nossa Senhora Da Abadia",
    "zipcode": "38025-440",
    "phone": "(34)33125077",
    "lat": -19.7568472,
    "lng": -47.9306543
  },
  {
    "state": "Minas Gerais",
    "city": "Uberlândia",
    "name": "Hemocentro Regional De Uberlândia",
    "address": "Av Levino De Souza, 1845",
    "neighborhood": "Umuarama",
    "zipcode": "38405-322",
    "phone": "(34)32228801",
    "lat": -18.8810847,
    "lng": -48.2610289
  },
  {
    "state": "Minas Gerais",
    "city": "Governador Valadares",
    "name": "Hemominas De Governador Valadares",
    "address": "R Rui Barbosa, 149",
    "neighborhood": "Centro",
    "zipcode": "35020-510",
    "phone": "(33)32125800",
    "lat": -18.8541135,
    "lng": -41.939479
  },
  {
    "state": "Minas Gerais",
    "city": "Ituiutaba",
    "name": "Hemominas De Ituiutaba",
    "address": "Av. 5 A, 0",
    "neighborhood": "Progresso",
    "zipcode": "38302-010",
    "phone": "(34)32613555",
    "lat": -18.9739665,
    "lng": -49.4857075
  },
  {
    "state": "Minas Gerais",
    "city": "Passos",
    "name": "Hemominas Passos",
    "address": "R Dr Jose L De Barros, 313",
    "neighborhood": "Belo Horizonte",
    "zipcode": "37900-030",
    "phone": "(35)35224202",
    "lat": -20.7265681,
    "lng": -46.6120678
  },
  {
    "state": "Minas Gerais",
    "city": "Poços de Caldas",
    "name": "Hemominas Poços De Caldas",
    "address": "Av Jose R Prezia, 303",
    "neighborhood": "Jardim dos Estados",
    "zipcode": "37701-102",
    "phone": "(35)37129012",
    "lat": -21.7847751,
    "lng": -46.5529022
  },
  {
    "state": "Minas Gerais",
    "city": "Diamantina",
    "name": "Núcleo Regional De Diamantina Hemominas",
    "address": "Rua Da Glória, 469 Fundos",
    "neighborhood": "Centro",
    "zipcode": "39100-000",
    "phone": "(38)35313762",
    "lat": -19.9049196,
    "lng": -44.076178
  },
  {
    "state": "Minas Gerais",
    "city": "Manhuaçu",
    "name": "Núcleo Regional De Manhuaçu",
    "address": "Rua Frederico Dolabela, 289",
    "neighborhood": "Baixada",
    "zipcode": "36900-000",
    "phone": "(33)33311021",
    "lat": -20.2555875,
    "lng": -42.030947
  },
  {
    "state": "Rio de Janeiro",
    "city": "Rio de Janeiro",
    "name": "Sesdec Inst De Hematologia – Hemorio",
    "address": "R Fr Caneca, 8",
    "neighborhood": "Centro",
    "zipcode": "20211-030",
    "phone": "(21)23328620,(21)23328611 Ramal:2117,(21)23328611 Ramal:2244",
    "lat": -22.9091191,
    "lng": -43.1890332
  },
  {
    "state": "Rio de Janeiro",
    "city": "Rio de Janeiro",
    "name": "Banco De Sangue Do Instituto Nacional De Câncer José Alencar Gomes Da Silva",
    "address": "Praça Cruz Vermelha, 23 2º Andar",
    "neighborhood": "Centro",
    "zipcode": "20230-130",
    "phone": "(21)32071580",
    "lat": -22.9116513,
    "lng": -43.1884478
  },
  {
    "state": "São Paulo",
    "city": "Ribeirão Preto",
    "name": "Hemocentro De Ribeirão Preto",
    "address": "R Ten Catao Roxo, 2501",
    "neighborhood": "Vila Monte Alegre",
    "zipcode": "14051-140",
    "phone": "(16)21019300,(16)21019663",
    "lat": -21.1605017,
    "lng": -47.8494722
  },
  {
    "state": "São Paulo",
    "city": "Santos",
    "name": "Hemonúcleo De Santos",
    "address": "Rua Oswaldo Cruz, 197",
    "neighborhood": "Boqueirão",
    "zipcode": "11045-904",
    "phone": "(13)32021428",
    "lat": -23.9624002,
    "lng": -46.3215602
  },
  {
    "state": "São Paulo",
    "city": "Bauru",
    "name": "Hemonúcleo De Bauru",
    "address": "R Mns Claro, 888",
    "neighborhood": "Centro",
    "zipcode": "17015-130",
    "phone": "(14)32344412",
    "lat": -22.3306151,
    "lng": -49.0761128
  },
  {
    "state": "São Paulo",
    "city": "Jaú",
    "name": "Hospital Amaral Carvalho",
    "address": "R Da Silveria, 150",
    "neighborhood": "Chacara Braz Miraglia",
    "zipcode": "17210-080",
    "phone": "(14)36021200",
    "lat": -22.2916715,
    "lng": -48.5500654
  },
  {
    "state": "São Paulo",
    "city": "Barretos",
    "name": "Hospital De Cancer De Barretos",
    "address": "R Antenor D Vilela, 1331",
    "neighborhood": "Doutor Paulo Prata",
    "zipcode": "14784-400",
    "phone": "(17)33216600 Ramal:7114,(17)33216600 Ramal:6753,(17)33216600 Ramal:7115",
    "lat": -20.5889928,
    "lng": -48.5695037
  },
  {
    "state": "São Paulo",
    "city": "Assis",
    "name": "Hospital Regional De Assis",
    "address": "Pc Dr Symphronio A Dos Santos, 0",
    "neighborhood": "Centro",
    "zipcode": "19814-015",
    "phone": "(18)33026000 Ramal:6023,(18)33026000 Ramal:6025",
    "lat": -22.6604341,
    "lng": -50.4187813
  },
  {
    "state": "São Paulo",
    "city": "São Paulo",
    "name": "Hospital São Paulo De Ensino Da Unifesp São Paulo",
    "address": "R Napoleao De Barros, 715",
    "neighborhood": "Vila Clementino",
    "zipcode": "04024-002",
    "phone": "(11)55764237",
    "lat": -23.5974295,
    "lng": -46.6438324
  },
  {
    "state": "São Paulo",
    "city": "Araraquara",
    "name": "Nucleo De Atendimento A Comunidade Farmácia Araraquara",
    "address": "R Exps Do Brasil, 1621",
    "neighborhood": "Centro",
    "zipcode": "14801-360",
    "phone": "(16)33016102",
    "lat": -21.7848272,
    "lng": -48.1786486
  },
  {
    "state": "São Paulo",
    "city": "Sorocaba",
    "name": "Colsan",
    "address": "Av Cdor Pereira Inacio, 564",
    "neighborhood": "Jardim Faculdade",
    "zipcode": "18030-005",
    "phone": "(15)32242930,(15)33329122",
    "lat": -23.5114888,
    "lng": -47.456187
  },
  {
    "state": "São Paulo",
    "city": "São José do Rio Preto",
    "name": "Fundação Faculdade Regional De Medicina De São José Do Rio Preto",
    "address": "R Jamil Feres Kfouri, 80",
    "neighborhood": "Jardim Panorama",
    "zipcode": "15091-240",
    "phone": "(17)32015076 Ramal:1930,(17)32015078 Ramal:1930",
    "lat": -20.811761,
    "lng": -49.3762272
  },
  {
    "state": "São Paulo",
    "city": "Marilia",
    "name": "Hemocentro Da Faculdade De Medicina De Marilia",
    "address": "R Lourival Freire, 240",
    "neighborhood": "Fragata",
    "zipcode": "17519-050",
    "phone": "(14)34021866",
    "lat": -22.2245865,
    "lng": -49.9375091
  },
  {
    "state": "São Paulo",
    "city": "São Paulo",
    "name": "Hemocentro Da Santa Casa De São Paulo/laboratório De Histocompatibilidade",
    "address": "R Mq De Itu, 579 Laboratório 2º Andar",
    "neighborhood": "Vila Buarque",
    "zipcode": "01223-001",
    "phone": "(11)21767249,(11)21767000 Ramal: 7249",
    "lat": -23.543883,
    "lng": -46.6499773
  },
  {
    "state": "São Paulo",
    "city": "Botucatu",
    "name": "Hemocentro De Botucatu",
    "address": "Distrito De Rubião Júnior, 0",
    "neighborhood": "Rubião Junior",
    "zipcode": "18618-970",
    "phone": "(14)38116041 Ramal:215,(14)38116041 Ramal:240,(14)38116041 Ramal:237",
    "lat": -22.8992387,
    "lng": -48.4924076
  },
  {
    "state": "São Paulo",
    "city": "Campinas",
    "name": "Hemocentro De Campinas/ Unicamp",
    "address": "R Carlos Chagas, 480",
    "neighborhood": "city Universitária",
    "zipcode": "13083-878",
    "phone": "(19)35218664,(19)35218654,(19)35218728",
    "lat": -22.828624,
    "lng": -47.063853
  },
  {
    "state": "Paraná",
    "city": "Londrina",
    "name": "Hospital Universitário Regional Do Norte Do Paraná",
    "address": "R. Claudio D. Cavalieri, 156",
    "neighborhood": "Jardim Urubá",
    "zipcode": "86038-350",
    "phone": "(43)33712218,(43)33712356,(43)33712417",
    "lat": -23.3044524,
    "lng": -51.1695824
  },
  {
    "state": "Paraná",
    "city": "Toledo",
    "name": "Unidade De Coleta E Transfusão De Toledo",
    "address": "R Alm Barroso, 2490",
    "neighborhood": "Centro",
    "zipcode": "85900-020",
    "phone": "(45)33791993,(45)99128699",
    "lat": -24.7287548,
    "lng": -53.7408363
  },
  {
    "state": "Paraná",
    "city": "Cornelio Procopio",
    "name": "Hemepar Cornelio Procopio",
    "address": "Rua Justino Marques Bonfim, 27",
    "neighborhood": "Centro",
    "zipcode": "86300-000",
    "phone": "(43)35203526,(43)35203523,(43)35242388",
    "lat": -23.1827465,
    "lng": -50.6456587
  },
  {
    "state": "Paraná",
    "city": "Curitiba",
    "name": "Hemepar Curitiba",
    "address": "Tv Joao Prosdocimo, 145",
    "neighborhood": "Alto Da Rua Xv",
    "zipcode": "80045-145",
    "phone": "(41)32814042,(41)32814000",
    "lat": -25.4249838,
    "lng": -49.257592
  },
  {
    "state": "Paraná",
    "city": "Guarapuava",
    "name": "Hemepar Guarapuava",
    "address": "R Afonso Botelho, 134",
    "neighborhood": "Trianon",
    "zipcode": "85015-000",
    "phone": "(42)36222819,(42)36223790",
    "lat": -25.3974942,
    "lng": -51.4580999
  },
  {
    "state": "Paraná",
    "city": "Itati",
    "name": "Hemepar Irati",
    "address": "Rua Coronel Garcia, 761",
    "neighborhood": "Centro",
    "zipcode": "84500-000",
    "phone": "(42)34232400,(42)34223119",
    "lat": -25.4673017,
    "lng": -50.6501954
  },
  {
    "state": "Paraná",
    "city": "Jacarezinho",
    "name": "Hemepar Jacarezinho",
    "address": "Rua Coronel Cecílio Rocha, 425",
    "neighborhood": "Centro",
    "zipcode": "86400-000",
    "phone": "(43)35271777",
    "lat": -23.157939,
    "lng": -49.9777202
  },
  {
    "state": "Paraná",
    "city": "Paranaguá",
    "name": "Hemepar Paranagua",
    "address": "Rua Gabriel De Lara, 481",
    "neighborhood": "Centro Histórico",
    "zipcode": "83203-250",
    "phone": "(41)34224931",
    "lat": -25.5202259,
    "lng": -48.5064362
  },
  {
    "state": "Paraná",
    "city": "Ponta Grossa",
    "name": "Hemepar Ponta Grossa",
    "address": "R Gen Osorio, 2390",
    "neighborhood": "Centro",
    "zipcode": "84010-080",
    "phone": "(42)32231616",
    "lat": -25.1003739,
    "lng": -50.1585908
  },
  {
    "state": "Paraná",
    "city": "Telemaco Borba",
    "name": "Hemepar Telemaco Borba",
    "address": "Rua Osório De Almeida Taques, 62",
    "neighborhood": "Centro",
    "zipcode": "84261-060",
    "phone": "(42)32723743",
    "lat": -24.3304024,
    "lng": -50.6191598
  },
  {
    "state": "Paraná",
    "city": "Umuarama",
    "name": "Hemepar Umuarama",
    "address": "Av Manaus, 4444",
    "neighborhood": "Centro Cívico",
    "zipcode": "87501-130",
    "phone": "(44)36218301",
    "lat": -23.7661064,
    "lng": -53.3206105
  },
  {
    "state": "Paraná",
    "city": "Curitiba",
    "name": "Hemobanco – Curitiba",
    "address": "R Cap Souza Franco, 290 Casa",
    "neighborhood": "Batel",
    "zipcode": "80730-420",
    "phone": "(41)30235545",
    "lat": -25.4356704,
    "lng": -49.2904908
  },
  {
    "state": "Paraná",
    "city": "Cascavel",
    "name": "Hemocentro Regional De Cascavel",
    "address": "R Avaetes, 37",
    "neighborhood": "Santo Onofre",
    "zipcode": "85806-380",
    "phone": "(45)32264549,(45)32260808",
    "lat": -24.9759069,
    "lng": -53.4964194
  },
  {
    "state": "Paraná",
    "city": "Maringá",
    "name": "Hemocentro Regional De Maringá",
    "address": "Av Mandacaru, 1600",
    "neighborhood": "Parque das Laranjeiras",
    "zipcode": "87083-240",
    "phone": "(44)30119151,(44)30119400,(44)30119194",
    "lat": -23.4018724,
    "lng": -51.956657
  },
  {
    "state": "Paraná",
    "city": "Foz do Iguaçu",
    "name": "Hemonúcleo De Foz Do Iguaçu",
    "address": "Av Gramado, 364",
    "neighborhood": "Vila Residencial A",
    "zipcode": "85860-460",
    "phone": "(45)35768020",
    "lat": -25.494464,
    "lng": -54.5383508
  },
  {
    "state": "Paraná",
    "city": "Francisco Beltrão",
    "name": "Hemonúcleo Regional De Francisco Beltrão",
    "address": "R Marilia, 1327",
    "neighborhood": "Padre Ulrico",
    "zipcode": "85604-400",
    "phone": "(46)35243454",
    "lat": -26.0651667,
    "lng": -53.0448564
  },
  {
    "state": "Paraná",
    "city": "Paranavaí",
    "name": "Hemonúcleo Regional De Paranavaí",
    "address": "R Rio G Do Sul, 2390",
    "neighborhood": "Centro",
    "zipcode": "87703-320",
    "phone": "(44)34215160,(44)34215163,(44)34215100",
    "lat": -23.0731189,
    "lng": -52.4640465
  },
  {
    "state": "Paraná",
    "city": "Curitiba",
    "name": "Hospital De Clínicas – statepr",
    "address": "Av Agostinho L Junior, 108 Térreo",
    "neighborhood": "Centro",
    "zipcode": "80030-110",
    "phone": "(41)33601800 Ramal:6527,(41)33601875,(41)33601800 Ramal:6481",
    "lat": -25.4241867,
    "lng": -49.2649582
  },
  {
    "state": "Paraná",
    "city": "Curitiba",
    "name": "Hospital Erasto Gaertner",
    "address": "R Dr Ovande Do Amaral, 201 Hospital Erasto Gaer",
    "neighborhood": "Jardim das Américas",
    "zipcode": "81520-060",
    "phone": "(41)33615037,(41)33615186,(41)33615038",
    "lat": -25.4542386,
    "lng": -49.2394749
  },
  {
    "state": "Paraná",
    "city": "Pato Branco",
    "name": "Assims",
    "address": "R Parana, 1633",
    "neighborhood": "Sambugaro",
    "zipcode": "85501-090",
    "phone": "(46)32251014,(46)32253585,(46)32253291",
    "lat": -26.2233218,
    "lng": -52.6803241
  },
  {
    "state": "Paraná",
    "city": "Curitiba",
    "name": "Banco De Sangue Na Santa Casa",
    "address": "Pc Rui Barbosa, 694",
    "neighborhood": "Centro",
    "zipcode": "80010-030",
    "phone": "(41)33222387",
    "lat": -25.4369705,
    "lng": -49.2741851
  },
  {
    "state": "Paraná",
    "city": "União da Vitória",
    "name": "Cisvali",
    "address": "Rua Castro Alves, 26 Prédio",
    "neighborhood": "Centro",
    "zipcode": "84600-000",
    "phone": "(42)35237930,(42)35221365,(42)35221793",
    "lat": -26.2270286,
    "lng": -51.0865923
  },
  {
    "state": "Paraná",
    "city": "Cianorte",
    "name": "Consorcio De Saude – Cianorte",
    "address": "Praça Da Republica, 71",
    "neighborhood": "Centro",
    "zipcode": "87200-000",
    "phone": "(44)3619191",
    "lat": -23.6551161,
    "lng": -52.6115821
  },
  {
    "state": "Paraná",
    "city": "Apucarana",
    "name": "Hemepar Apucarana",
    "address": "R Antonio Ostrenski, 03",
    "neighborhood": "Centro",
    "zipcode": "86800-200",
    "phone": "(41)34204200",
    "lat": -23.5533524,
    "lng": -51.4696826
  },
  {
    "state": "Paraná",
    "city": "Campo Mourão",
    "name": "Hemepar Campo Mourao",
    "address": "R Mambore, 1500",
    "neighborhood": "Centro",
    "zipcode": "87302-140",
    "phone": "(44)35251102,(44)35231844",
    "lat": -24.045045,
    "lng": -52.3908055
  },
  {
    "state": "Santa Catarina",
    "city": "Florianópolis",
    "name": "Centro De Hematologia E Hemoterapia De Santa Catarina",
    "address": "Av Prf Othon Gama Deca, 756 Praça D. Pedro I",
    "neighborhood": "Centro",
    "zipcode": "88015-240",
    "phone": "(48)32519733",
    "lat": -27.5889634,
    "lng": -48.5514392
  }
]